{
  "type": "FeatureCollection",
  "features": [
    {
      "type": "Feature",
      "geometry": {
        "type": "Point",
        "coordinates": [
          -94.15723353624344,
          45.56042641181702
        ]
      },
      "properties": {
        "NAME": "7 West Taphouse",
        "ADDRESS": "28 5th Ave S",
        "URL": "http://www.7westtaphouse.com/st-cloud",
        "HOURS": "11:00 am - 12:00 am (Tue-Wed); 11:00 am - 1:00 am (Thu-Fri)"
      }
    },
    {
      "type": "Feature",
      "geometry": {
        "type": "Point",
        "coordinates": [
          -94.15682315826416,
          45.55841507371229
        ]
      },
      "properties": {
        "NAME": "Beaver Island Brewing Company",
        "ADDRESS": "216 6th Ave S",
        "URL": "https://www.beaverislandbrew.com/",
        "HOURS": "3:00 pm - 10:00 pm (Tue-Thu); 12:00 pm - 10:00 pm"
      }
    },
    {
      "type": "Feature",
      "geometry": {
        "type": "Point",
        "coordinates": [
          -94.15641009807587,
          45.55865546151308
        ]
      },
      "properties": {
        "NAME": "Chipotle",
        "ADDRESS": "211 5th Ave S",
        "URL": "https://locations.chipotle.com/mn/saint-cloud/211-5th-ave-s",
        "HOURS": "10:45 am - 10:00 pm"
      }
    },
    {
      "type": "Feature",
      "geometry": {
        "type": "Point",
        "coordinates": [
          -94.175809,
          45.553599
        ]
      },
      "properties": {
        "NAME": "Cowboy Jack's",
        "ADDRESS": "506 W St Germain St",
        "URL": "http://theaftermidnightgroup.com/locations/",
        "HOURS": "11:00 am - 2:00 am"
      }
    },
    {
      "type": "Feature",
      "geometry": {
        "type": "Point",
        "coordinates": [
          -94.175809,
          45.553599
        ]
      },
      "properties": {
        "NAME": "Dolsie's Lunch Box Grille",
        "ADDRESS": "810 W St Germain",
        "URL": "https://dolsieslunchbox.com/",
        "HOURS": "10:00 am - 2:30 pm"
      }
    },
    {
      "type": "Feature",
      "geometry": {
        "type": "Point",
        "coordinates": [
          -94.175809,
          45.553599
        ]
      },
      "properties": {
        "NAME": "Erbert and Gerbert's",
        "ADDRESS": "516 W St Germain",
        "URL": "https://www.erbertandgerberts.com/locations/1011/saint-cloud/",
        "HOURS": "10:30 am - 12:30 am (Tue); 10:30 am - 3:00 am (Wed-Fri)"
      }
    },
    {
      "type": "Feature",
      "geometry": {
        "type": "Point",
        "coordinates": [
          -94.15538549423218,
          45.55758873280335
        ]
      },
      "properties": {
        "NAME": "Firehouse Subs",
        "ADDRESS": "335 5th Ave S #160",
        "URL": "https://www.firehousesubs.com/locations/mn/coburn-plaza/",
        "HOURS": "10:30 am - 9:00 pm"
      }
    },
    {
      "type": "Feature",
      "geometry": {
        "type": "Point",
        "coordinates": [
          -94.15691435337067,
          45.558632925200435
        ]
      },
      "properties": {
        "NAME": "Great Dragon Buffet",
        "ADDRESS": "208 6th Ave S",
        "URL": "",
        "HOURS": "11:00 am - 9:00 pm"
      }
    },
    {
      "type": "Feature",
      "geometry": {
        "type": "Point",
        "coordinates": [
          -94.15727376937866,
          45.56047148299455
        ]
      },
      "properties": {
        "NAME": "Greek Cravings",
        "ADDRESS": "26 5th Ave S",
        "URL": "https://greekcravingsstcloud.com",
        "HOURS": "11:00 am - 10:00 pm (Tue-Thu); 11:00 am - 3:00 am (Fri)"
      }
    },
    {
      "type": "Feature",
      "geometry": {
        "type": "Point",
        "coordinates": [
          -94.15498316287994,
          45.56068744855198
        ]
      },
      "properties": {
        "NAME": "Green Mill",
        "ADDRESS": "100 4th Ave S",
        "URL": "https://www.greenmill.com/locations/st-cloud/",
        "HOURS": "6:30 am - 12:30 am"
      }
    },
    {
      "type": "Feature",
      "geometry": {
        "type": "Point",
        "coordinates": [
          -94.1578048467636,
          45.56046209316889
        ]
      },
      "properties": {
        "NAME": "House of Pizza",
        "ADDRESS": "19th 5th Ave S",
        "URL": "http://houseofpizzamn.com/",
        "HOURS": "11:00 am - 11:00 pm"
      }
    },
    {
      "type": "Feature",
      "geometry": {
        "type": "Point",
        "coordinates": [
          -94.16383177042007,
          45.560199177412855
        ]
      },
      "properties": {
        "NAME": "Howie's Sports Bar & Grill",
        "ADDRESS": "101 9th Ave N",
        "URL": "https://www.facebook.com/HowiesSportsBarStCloud/",
        "HOURS": ""
      }
    },
    {
      "type": "Feature",
      "geometry": {
        "type": "Point",
        "coordinates": [
          -94.1600713133812,
          45.55947239674352
        ]
      },
      "properties": {
        "NAME": "Jet's Pizza",
        "ADDRESS": "19 7th Ave S",
        "URL": "https://www.jetspizza.com/",
        "HOURS": "11:00 am - 11:00 pm (Tue-Thu); 11:00 am - 12:00 am (Fri)"
      }
    },
    {
      "type": "Feature",
      "geometry": {
        "type": "Point",
        "coordinates": [
          -94.15750980377197,
          45.56075881090153
        ]
      },
      "properties": {
        "marker-color": "#7e7e7e",
        "marker-size": "medium",
        "marker-symbol": "",
        "NAME": "Jimmy John's Sandwiches",
        "ADDRESS": "14 5th Ave S",
        "URL": "https://www.jimmyjohns.com/",
        "HOURS": "11:00 am - 11:00 pm (Sun-Tue); 11:00 am - 3:00 am (Wed-Sat)"
      }
    },
    {
      "type": "Feature",
      "geometry": {
        "type": "Point",
        "coordinates": [
          -94.175809,
          45.553599
        ]
      },
      "properties": {
        "NAME": "Jules' Bistro",
        "ADDRESS": "921 W St Germain St",
        "URL": "http://julesbistrostcloud.com/",
        "HOURS": "7:30 am - 10:00 pm"
      }
    },
    {
      "type": "Feature",
      "geometry": {
        "type": "Point",
        "coordinates": [
          -94.15845394134521,
          45.561218908084385
        ]
      },
      "properties": {
        "NAME": "MC's Dugout Bar & Grill",
        "ADDRESS": "501 W St Germain St",
        "URL": "http://mcsdugout.com/",
        "HOURS": "11:00 am - 2:00 am"
      }
    },
    {
      "type": "Feature",
      "geometry": {
        "type": "Point",
        "coordinates": [
          -94.175809,
          45.553599
        ]
      },
      "properties": {
        "NAME": "Mexican Village",
        "ADDRESS": "509 W St Germain St",
        "URL": "http://www.mexicanvillagestcloud.com/",
        "HOURS": "11:00 am - 9:00 pm"
      }
    },
    {
      "type": "Feature",
      "geometry": {
        "type": "Point",
        "coordinates": [
          -94.15654420852661,
          45.55865546151308
        ]
      },
      "properties": {
        "NAME": "Noodles & Company",
        "ADDRESS": "211 5th Ave S",
        "URL": "https://locations.noodles.com/mn/saint-cloud/211-5th-avenue-s.html",
        "HOURS": "11:00 am - 10:00 pm"
      }
    },
    {
      "type": "Feature",
      "geometry": {
        "type": "Point",
        "coordinates": [
          -94.1580730676651,
          45.559654562290284
        ]
      },
      "properties": {
        "marker-color": "#7e7e7e",
        "marker-size": "medium",
        "marker-symbol": "",
        "NAME": "Olde Brick House",
        "ADDRESS": "102 6th Ave S",
        "URL": "http://oldebrickhousemn.com/",
        "HOURS": "11:00 am - 11:00 pm (Tue-Thu); 11:00 am - 12:00 am (Fri)"
      }
    },
    {
      "type": "Feature",
      "geometry": {
        "type": "Point",
        "coordinates": [
          -94.175809,
          45.553599
        ]
      },
      "properties": {
        "NAME": "Polito's Pizza",
        "ADDRESS": "515 W St Germain St",
        "URL": "http://politossc.eatontheweb.com/",
        "HOURS": "11:00 am - 10:00 pm (Tue-Wed); 11:00 am - 3:00 am (Thu-Fri)"
      }
    },
    {
      "type": "Feature",
      "geometry": {
        "type": "Point",
        "coordinates": [
          -94.15794432163239,
          45.56064613346607
        ]
      },
      "properties": {
        "marker-color": "#7e7e7e",
        "marker-size": "medium",
        "marker-symbol": "",
        "NAME": "Red Carpet Nightclub",
        "ADDRESS": "11 5th Ave S.",
        "URL": "http://www.redcarpetnightclub.com/",
        "HOURS": "4:00 pm - 2:00 am"
      }
    },
    {
      "type": "Feature",
      "geometry": {
        "type": "Point",
        "coordinates": [
          -94.16157603263855,
          45.559384130750715
        ]
      },
      "properties": {
        "NAME": "Sawatdee Thai Restaurant",
        "ADDRESS": "800 W St Germain St",
        "URL": "https://www.sawatdee.com/saint-cloud-menu",
        "HOURS": "11:00 am - 9:00 pm"
      }
    },
    {
      "type": "Feature",
      "geometry": {
        "type": "Point",
        "coordinates": [
          -94.16353404521942,
          45.55982733731466
        ]
      },
      "properties": {
        "NAME": "Taco Johns, Downtown",
        "ADDRESS": "25 9th Ave N",
        "URL": "https://locations.tacojohns.com/mn/saint-cloud/25-9th-avenue-n.html",
        "HOURS": "7:00 am - 10:00 pm"
      }
    },
    {
      "type": "Feature",
      "geometry": {
        "type": "Point",
        "coordinates": [
          -94.15761977434158,
          45.56096538561296
        ]
      },
      "properties": {
        "NAME": "The Bistro at Courtyard by Marriott Downtown",
        "ADDRESS": "404 W St Germain St",
        "URL": "https://www.marriott.com/hotels/hotel-information/restaurant/mobcy-courtyard-mobile/",
        "HOURS": "6:30 am - 11:00 pm"
      }
    },
    {
      "type": "Feature",
      "geometry": {
        "type": "Point",
        "coordinates": [
          -94.1612434387207,
          45.56003767140989
        ]
      },
      "properties": {
        "NAME": "The Pickled Loon",
        "ADDRESS": "715 W St Germain St",
        "URL": "http://www.thepickledloon.com/",
        "HOURS": "11:00 am - 2:00 am"
      }
    },
    {
      "type": "Feature",
      "geometry": {
        "type": "Point",
        "coordinates": [
          -94.15732204914092,
          45.56057101505024
        ]
      },
      "properties": {
        "NAME": "Veranda Lounge",
        "ADDRESS": "22 5th Ave S",
        "URL": "http://www.ppfive.com/veranda-lounge-2/",
        "HOURS": "4:00 pm - 12:00 pm (Tue-Thu); 4:00 pm - 1:00 am (Fri)"
      }
    },
    {
      "type": "Feature",
      "geometry": {
        "type": "Point",
        "coordinates": [
          -94.1620749235153,
          45.559639538349984
        ]
      },
      "properties": {
        "NAME": "White Horse Restaurant & Bar",
        "ADDRESS": "809 W St Germain St",
        "URL": "http://www.whitehorsemn.com/",
        "HOURS": "11:00 am - 2:00 am"
      }
    }
  ]
}
